[
    {
        "id": "nyc-001",
        "title": "Sunny 1BR in Upper West Side",
        "address": "240 W 73rd St, New York, NY",
        "lat": 40.7795,
        "lng": -73.9839,
        "price": 3200,
        "sale_type": "rent",
        "beds": 1,
        "baths": 1,
        "sqft": 650,
        "image_url": "https://images.unsplash.com/photo-1560448204-e02f11c3d0e2?w=400&h=300&fit=crop"
    },
    {
        "id": "nyc-002",
        "title": "2BR Condo near Prospect Park",
        "address": "15 Ocean Ave, Brooklyn, NY",
        "lat": 40.6559,
        "lng": -73.9626,
        "price": 890000,
        "sale_type": "sale",
        "beds": 2,
        "baths": 2,
        "sqft": 920,
        "image_url": "https://images.unsplash.com/photo-1522708323590-d24dbb6b0267?w=400&h=300&fit=crop"
    },
    {
        "id": "nyc-003",
        "title": "3BR House in Queens",
        "address": "72-15 35th Ave, Queens, NY",
        "lat": 40.7523,
        "lng": -73.8943,
        "price": 2800,
        "sale_type": "rent",
        "beds": 3,
        "baths": 2,
        "sqft": 1150,
        "image_url": "https://images.unsplash.com/photo-1564013799919-ab600027ffc6?w=400&h=300&fit=crop"
    },
    {
        "id": "nyc-004",
        "title": "Studio near Washington Square",
        "address": "12 Waverly Pl, New York, NY",
        "lat": 40.7316,
        "lng": -73.997,
        "price": 2600,
        "sale_type": "rent",
        "beds": 0,
        "baths": 1,
        "sqft": 400,
        "image_url": "https://images.unsplash.com/photo-1600607687644-c7171b42498b?w=400&h=300&fit=crop"
    },
    {
        "id": "nyc-005",
        "title": "4BR Townhome in Park Slope",
        "address": "7th Ave & Carroll St, Brooklyn, NY",
        "lat": 40.6742,
        "lng": -73.978,
        "price": 2450000,
        "sale_type": "sale",
        "beds": 4,
        "baths": 3,
        "sqft": 2100,
        "image_url": "https://images.unsplash.com/photo-1600566753086-00f18fb6b3ea?w=400&h=300&fit=crop"
    },
    {
        "id": "nyc-006",
        "title": "Luxury 2BR in Financial District",
        "address": "85 Broad St, New York, NY",
        "lat": 40.7074,
        "lng": -74.0113,
        "price": 4500,
        "sale_type": "rent",
        "beds": 2,
        "baths": 2,
        "sqft": 1100,
        "image_url": "https://images.unsplash.com/photo-1600566753190-17f0baa2a6c3?w=400&h=300&fit=crop"
    },
    {
        "id": "nyc-007",
        "title": "Cozy 1BR in East Village",
        "address": "123 2nd Ave, New York, NY",
        "lat": 40.7282,
        "lng": -73.9857,
        "price": 2800,
        "sale_type": "rent",
        "beds": 1,
        "baths": 1,
        "sqft": 550,
        "image_url": "https://images.unsplash.com/photo-1600566752355-35792bedcfea?w=400&h=300&fit=crop"
    },
    {
        "id": "nyc-008",
        "title": "3BR Penthouse in Midtown",
        "address": "350 5th Ave, New York, NY",
        "lat": 40.7484,
        "lng": -73.9857,
        "price": 8500000,
        "sale_type": "sale",
        "beds": 3,
        "baths": 3,
        "sqft": 3200,
        "image_url": "https://images.unsplash.com/photo-1600566753151-384129cf4e3e?w=400&h=300&fit=crop"
    },
    {
        "id": "nyc-009",
        "title": "2BR Apartment in SoHo",
        "address": "45 Spring St, New York, NY",
        "lat": 40.7259,
        "lng": -74.0027,
        "price": 4200,
        "sale_type": "rent",
        "beds": 2,
        "baths": 2,
        "sqft": 950,
        "image_url": "https://images.unsplash.com/photo-1600566752355-35792bedcfea?w=400&h=300&fit=crop"
    },
    {
        "id": "nyc-010",
        "title": "1BR Studio in Hell's Kitchen",
        "address": "789 9th Ave, New York, NY",
        "lat": 40.7614,
        "lng": -73.9976,
        "price": 2200,
        "sale_type": "rent",
        "beds": 1,
        "baths": 1,
        "sqft": 480,
        "image_url": "https://images.unsplash.com/photo-1600566753086-00f18fb6b3ea?w=400&h=300&fit=crop"
    },
    {
        "id": "nyc-011",
        "title": "4BR Brownstone in Harlem",
        "address": "123 Lenox Ave, New York, NY",
        "lat": 40.8075,
        "lng": -73.9442,
        "price": 1800000,
        "sale_type": "sale",
        "beds": 4,
        "baths": 2,
        "sqft": 1800,
        "image_url": "https://images.unsplash.com/photo-1600607687939-ce8a6c25118c?w=400&h=300&fit=crop"
    },
    {
        "id": "nyc-012",
        "title": "2BR Loft in Williamsburg",
        "address": "456 Bedford Ave, Brooklyn, NY",
        "lat": 40.7081,
        "lng": -73.9571,
        "price": 3800,
        "sale_type": "rent",
        "beds": 2,
        "baths": 1,
        "sqft": 1200,
        "image_url": "https://images.unsplash.com/photo-1600596542815-ffad4c1539a9?w=400&h=300&fit=crop"
    },
    {
        "id": "nyc-013",
        "title": "3BR House in Astoria",
        "address": "789 30th Ave, Queens, NY",
        "lat": 40.7701,
        "lng": -73.9208,
        "price": 3200,
        "sale_type": "rent",
        "beds": 3,
        "baths": 2,
        "sqft": 1400,
        "image_url": "https://images.unsplash.com/photo-1522708323590-d24dbb6b0267?w=400&h=300&fit=crop"
    },
    {
        "id": "nyc-014",
        "title": "Luxury 1BR in Tribeca",
        "address": "234 Hudson St, New York, NY",
        "lat": 40.7182,
        "lng": -74.0076,
        "price": 5200,
        "sale_type": "rent",
        "beds": 1,
        "baths": 1,
        "sqft": 750,
        "image_url": "https://images.unsplash.com/photo-1600607687644-c7171b42498b?w=400&h=300&fit=crop"
    },
    {
        "id": "nyc-015",
        "title": "5BR Mansion in Staten Island",
        "address": "123 Todt Hill Rd, Staten Island, NY",
        "lat": 40.6012,
        "lng": -74.1034,
        "price": 3200000,
        "sale_type": "sale",
        "beds": 5,
        "baths": 4,
        "sqft": 3500,
        "image_url": "https://images.unsplash.com/photo-1600566753151-384129cf4e3e?w=400&h=300&fit=crop"
    },
    {
        "id": "nyc-016",
        "title": "2BR Condo in Long Island City",
        "address": "456 Jackson Ave, Queens, NY",
        "lat": 40.7505,
        "lng": -73.937,
        "price": 1200000,
        "sale_type": "sale",
        "beds": 2,
        "baths": 2,
        "sqft": 1100,
        "image_url": "https://images.unsplash.com/photo-1502672260266-1c1ef2d93688?w=400&h=300&fit=crop"
    },
    {
        "id": "nyc-017",
        "title": "1BR Apartment in Chelsea",
        "address": "789 8th Ave, New York, NY",
        "lat": 40.7505,
        "lng": -73.9934,
        "price": 3500,
        "sale_type": "rent",
        "beds": 1,
        "baths": 1,
        "sqft": 600,
        "image_url": "https://images.unsplash.com/photo-1600607687939-ce8a6c25118c?w=400&h=300&fit=crop"
    },
    {
        "id": "nyc-018",
        "title": "3BR Townhouse in Carroll Gardens",
        "address": "234 Smith St, Brooklyn, NY",
        "lat": 40.6804,
        "lng": -73.9948,
        "price": 2100000,
        "sale_type": "sale",
        "beds": 3,
        "baths": 2,
        "sqft": 1600,
        "image_url": "https://images.unsplash.com/photo-1600566752355-35792bedcfea?w=400&h=300&fit=crop"
    },
    {
        "id": "nyc-019",
        "title": "Studio in Greenwich Village",
        "address": "123 Bleecker St, New York, NY",
        "lat": 40.7282,
        "lng": -73.9991,
        "price": 2400,
        "sale_type": "rent",
        "beds": 0,
        "baths": 1,
        "sqft": 420,
        "image_url": "https://images.unsplash.com/photo-1522708323590-d24dbb6b0267?w=400&h=300&fit=crop"
    },
    {
        "id": "nyc-020",
        "title": "4BR Apartment in Upper East Side",
        "address": "456 Park Ave, New York, NY",
        "lat": 40.7614,
        "lng": -73.9776,
        "price": 6800,
        "sale_type": "rent",
        "beds": 4,
        "baths": 3,
        "sqft": 1800,
        "image_url": "https://images.unsplash.com/photo-1600566753086-00f18fb6b3ea?w=400&h=300&fit=crop"
    },
    {
        "id": "nyc-021",
        "title": "2BR Duplex in DUMBO",
        "address": "789 Front St, Brooklyn, NY",
        "lat": 40.7033,
        "lng": -73.9881,
        "price": 4800,
        "sale_type": "rent",
        "beds": 2,
        "baths": 2,
        "sqft": 1300,
        "image_url": "https://images.unsplash.com/photo-1600607687644-c7171b42498b?w=400&h=300&fit=crop"
    },
    {
        "id": "nyc-022",
        "title": "1BR Condo in Battery Park City",
        "address": "123 South End Ave, New York, NY",
        "lat": 40.7115,
        "lng": -74.0159,
        "price": 1800000,
        "sale_type": "sale",
        "beds": 1,
        "baths": 1,
        "sqft": 800,
        "image_url": "https://images.unsplash.com/photo-1600566753151-384129cf4e3e?w=400&h=300&fit=crop"
    },
    {
        "id": "nyc-023",
        "title": "3BR House in Bay Ridge",
        "address": "456 3rd Ave, Brooklyn, NY",
        "lat": 40.6349,
        "lng": -74.0307,
        "price": 1900,
        "sale_type": "rent",
        "beds": 3,
        "baths": 2,
        "sqft": 1200,
        "image_url": "https://images.unsplash.com/photo-1600566752355-35792bedcfea?w=400&h=300&fit=crop"
    },
    {
        "id": "nyc-024",
        "title": "Luxury 2BR in NoMad",
        "address": "789 Broadway, New York, NY",
        "lat": 40.7489,
        "lng": -73.9857,
        "price": 5500,
        "sale_type": "rent",
        "beds": 2,
        "baths": 2,
        "sqft": 1050,
        "image_url": "https://images.unsplash.com/photo-1600607687939-ce8a6c25118c?w=400&h=300&fit=crop"
    },
    {
        "id": "nyc-025",
        "title": "4BR Penthouse in Upper West Side",
        "address": "123 Central Park W, New York, NY",
        "lat": 40.7831,
        "lng": -73.9712,
        "price": 12500000,
        "sale_type": "sale",
        "beds": 4,
        "baths": 4,
        "sqft": 4000,
        "image_url": "https://images.unsplash.com/photo-1600566753086-00f18fb6b3ea?w=400&h=300&fit=crop"
    }
]